[
  {
    "id": "poi-1",
    "lat": 37.1773,
    "lon": -3.5903,
    "name": "卡洛斯五世宫",
    "description": "一座巨大的文艺复兴时期建筑，与周围的摩尔式建筑形成鲜明对比。虽然从未为皇帝完工，但其宏伟的圆形庭院是惊人的景象。"
  },
  {
    "id": "poi-2",
    "lat": 37.1771,
    "lon": -3.5893,
    "name": "狮子庭院",
    "description": "纳斯瑞德宫殿的核心，以其由十二只大理石狮子支撑的中央喷泉而闻名。这是摩尔艺术和水利工程之美与复杂的标志性典范。"
  },
  {
    "id": "poi-3",
    "lat": 37.1786,
    "lon": -3.5904,
    "name": "阿尔卡萨瓦城堡",
    "description": "阿尔罕布拉宫最古老的部分，是一座拥有雄伟塔楼的强大军事堡垒。登上维拉塔，欣赏格拉纳达和内华达山脉最壮观的全景。"
  },
  {
    "id": "poi-4",
    "lat": 37.1742,
    "lon": -3.5873,
    "name": "赫内拉利费宫",
    "description": "纳斯瑞德统治者宁静的夏宫和乡间庄园。其迷人的花园、庭院和水景被设计成一个宁静的避世之所和天堂的象征。"
  },
  {
    "id": "poi-5",
    "lat": 37.1775,
    "lon": -3.5886,
    "name": "帕塔尔宫",
    "description": "阿尔罕布拉宫现存最古老的宫殿之一，以其标志性的门廊倒映在一个大水池中而闻名。这是一个将建筑与自然完美融合的宁静区域。"
  },
  {
    "id": "poi-6",
    "lat": 37.1770,
    "lon": -3.5894,
    "name": "阿本瑟拉赫斯厅",
    "description": "狮子宫内一个传奇的大厅，以其壮观的星形蜂巢状天花板而闻名。其音响效果和复杂的设计是那个时代工匠大师技艺的证明。"
  }
]
